[
  {
    "name": "John Doe",
    "age": 28,
    "experience": 3,
    "latitude": 19.076,
    "longitude": 72.8777,
    "review": "good",
    "phone": "7045721460"
  },
  {
    "name": "Ravi Sharma",
    "age": 26,
    "experience": 1,
    "latitude": 19.2183,
    "longitude": 72.9788,
    "review": "good",
    "phone": "9321640061"
  },
  {
    "name": "Neha Joshi",
    "age": 34,
    "experience": 6,
    "latitude": 19.2185,
    "longitude": 72.8581,
    "review": "bad",
    "phone": "8779790318"
  },
  {
    "name": "Amit Patel",
    "age": 29,
    "experience": 4,
    "latitude": 19.3,
    "longitude": 72.85,
    "review": "great",
    "phone": "8652419145"
  },
  {
    "name": "Sandeep Rao",
    "age": 24,
    "experience": 2,
    "latitude": 28.6139,
    "longitude": 77.209,
    "review": "great",
    "phone": "7045721460"
  },
  {
    "name": "Anjali Mehta",
    "age": 31,
    "experience": 5,
    "latitude": 28.7041,
    "longitude": 77.1025,
    "review": "good",
    "phone": "9321640061"
  },
  {
    "name": "Vikram Singh",
    "age": 27,
    "experience": 2,
    "latitude": 28.5355,
    "longitude": 77.391,
    "review": "bad",
    "phone": "8779790318"
  },
  {
    "name": "Pooja Reddy",
    "age": 35,
    "experience": 8,
    "latitude": 28.4089,
    "longitude": 77.3178,
    "review": "great",
    "phone": "8652419145"
  },
  {
    "name": "Karan Verma",
    "age": 25,
    "experience": 3,
    "latitude": 28.6748,
    "longitude": 77.2171,
    "review": "good",
    "phone": "7045721460"
  },
  {
    "name": "Geetha Ramesh",
    "age": 38,
    "experience": 7,
    "latitude": 12.9716,
    "longitude": 77.5946,
    "review": "great",
    "phone": "9321640061"
  },
  {
    "name": "Arvind Kumar",
    "age": 40,
    "experience": 10,
    "latitude": 12.9836,
    "longitude": 77.6125,
    "review": "bad",
    "phone": "8779790318"
  },
  {
    "name": "Vidya Shankar",
    "age": 27,
    "experience": 4,
    "latitude": 12.9486,
    "longitude": 77.574,
    "review": "good",
    "phone": "8652419145"
  },
  {
    "name": "Rahul Naidu",
    "age": 33,
    "experience": 6,
    "latitude": 12.9279,
    "longitude": 77.6218,
    "review": "great",
    "phone": "7045721460"
  },
  {
    "name": "Shanthi Rao",
    "age": 29,
    "experience": 3,
    "latitude": 12.9738,
    "longitude": 77.6091,
    "review": "good",
    "phone": "9321640061"
  },
  {
    "name": "Lakshmi Patel",
    "age": 32,
    "experience": 5,
    "latitude": 12.9654,
    "longitude": 77.6451,
    "review": "bad",
    "phone": "8779790318"
  },
  {
    "name": "Krishna Babu",
    "age": 26,
    "experience": 2,
    "latitude": 13.0827,
    "longitude": 80.2707,
    "review": "good",
    "phone": "8652419145"
  },
  {
    "name": "Vijay Kumar",
    "age": 36,
    "experience": 7,
    "latitude": 13.0287,
    "longitude": 80.2578,
    "review": "great",
    "phone": "7045721460"
  },
  {
    "name": "Suma Reddy",
    "age": 30,
    "experience": 4,
    "latitude": 13.0787,
    "longitude": 80.2543,
    "review": "great",
    "phone": "9321640061"
  },
  {
    "name": "Madhavi Verma",
    "age": 39,
    "experience": 8,
    "latitude": 13.0878,
    "longitude": 80.2125,
    "review": "bad",
    "phone": "8779790318"
  },
  {
    "name": "Surya Prakash",
    "age": 28,
    "experience": 3,
    "latitude": 13.0167,
    "longitude": 80.2494,
    "review": "good",
    "phone": "8652419145"
  },
  {
    "name": "Manoj Yadav",
    "age": 27,
    "experience": 2,
    "latitude": 22.5726,
    "longitude": 88.3639,
    "review": "great",
    "phone": "7045721460"
  },
  {
    "name": "Tina Banerjee",
    "age": 34,
    "experience": 5,
    "latitude": 22.5513,
    "longitude": 88.3675,
    "review": "good",
    "phone": "9321640061"
  },
  {
    "name": "Arun Das",
    "age": 29,
    "experience": 4,
    "latitude": 22.4937,
    "longitude": 88.4241,
    "review": "bad",
    "phone": "8779790318"
  },
  {
    "name": "Rohit Chatterjee",
    "age": 31,
    "experience": 6,
    "latitude": 22.69,
    "longitude": 88.3895,
    "review": "great",
    "phone": "8652419145"
  },
  {
    "name": "Farah Khan",
    "age": 24,
    "experience": 1,
    "latitude": 19.0762,
    "longitude": 72.8774,
    "review": "good",
    "phone": "7045721460"
  },
  {
    "name": "Rohit Reddy",
    "age": 26,
    "experience": 2,
    "latitude": 12.9633,
    "longitude": 77.6101,
    "review": "good",
    "phone": "9321640061"
  },
  {
    "name": "Nidhi Mehta",
    "age": 32,
    "experience": 4,
    "latitude": 22.5724,
    "longitude": 88.3638,
    "review": "great",
    "phone": "8779790318"
  },
  {
    "name": "Suresh Kumar",
    "age": 30,
    "experience": 6,
    "latitude": 28.6128,
    "longitude": 77.2295,
    "review": "great",
    "phone": "8652419145"
  },
  {
    "name": "Manju Verma",
    "age": 25,
    "experience": 3,
    "latitude": 12.9356,
    "longitude": 77.6242,
    "review": "good",
    "phone": "7045721460"
  },
  {
    "name": "Bharati Devi",
    "age": 29,
    "experience": 2,
    "latitude": 19.21,
    "longitude": 72.85,
    "review": "good",
    "phone": "9321640061"
  },
  {
    "name": "Sanjay Yadav",
    "age": 35,
    "experience": 7,
    "latitude": 28.5357,
    "longitude": 77.2765,
    "review": "bad",
    "phone": "8779790318"
  },
  {
    "name": "Poonam Sharma",
    "age": 34,
    "experience": 5,
    "latitude": 13.0822,
    "longitude": 80.2753,
    "review": "great",
    "phone": "8652419145"
  },
  {
    "name": "Sandeep Singh",
    "age": 40,
    "experience": 10,
    "latitude": 12.9576,
    "longitude": 77.6176,
    "review": "good",
    "phone": "7045721460"
  },
  {
    "name": "Shubhi Yadav",
    "age": 28,
    "experience": 3,
    "latitude": 19.085,
    "longitude": 72.83,
    "review": "good",
    "phone": "9321640061"
  },
  {
    "name": "Rajesh Naidu",
    "age": 33,
    "experience": 6,
    "latitude": 22.5567,
    "longitude": 88.3333,
    "review": "bad",
    "phone": "8779790318"
  },
  {
    "name": "Jaya Rani",
    "age": 27,
    "experience": 3,
    "latitude": 19.2564,
    "longitude": 72.8185,
    "review": "great",
    "phone": "8652419145"
  },
  {
    "name": "Krishna Patel",
    "age": 28,
    "experience": 4,
    "latitude": 13.0825,
    "longitude": 80.271,
    "review": "great",
    "phone": "7045721460"
  },
  {
    "name": "Kavita Kumari",
    "age": 32,
    "experience": 5,
    "latitude": 28.6636,
    "longitude": 77.221,
    "review": "good",
    "phone": "9321640061"
  },
  {
    "name": "Vikas Mehta",
    "age": 30,
    "experience": 6,
    "latitude": 19.0858,
    "longitude": 72.8301,
    "review": "bad",
    "phone": "8779790318"
  }
]
